[15:49:40]$GNRMC,074950.000,A,3029.284465,N,11433.425723,E,0.083,166.54,090119,,E,A*01
[15:49:41]$GNGGA,074950.000,3029.284465,N,11433.425723,E,1,18,0.77,71.497,M,0,M,,*66
[15:49:41]$GNTXT,20190109,074950,3,2,5,0.79,19,0x2FD8FFA,18,18,0x0,0x4,0x0,1,G,0xD320A004,41,46,43,44,39,50,45,50,50,B,0x77B,45,42,43,38,47,49,48,46,40,E,18,45.17
[15:49:42]$GNRMC,074951.000,A,3029.284464,N,11433.425722,E,0.097,166.77,090119,,E,A*04
[15:49:42]$GNGGA,074951.000,3029.284464,N,11433.425722,E,1,18,0.77,71.499,M,0,M,,*69
[15:49:42]$GNTXT,20190109,074951,3,2,5,0.83,19,0x2FD8FFA,18,18,0x0,0x4,0x0,1,G,0xD320A004,41,46,44,44,38,50,45,49,50,B,0x77B,45,42,42,38,47,48,48,46,40,E,18,45.15
[15:49:43]$GNRMC,074952.000,A,3029.284463,N,11433.425722,E,0.063,166.91,090119,,E,A*03
[15:49:43]$GNGGA,074952.000,3029.284463,N,11433.425722,E,1,18,0.77,71.501,M,0,M,,*6D
[15:49:43]$GNTXT,20190109,074952,3,2,5,0.87,19,0x2FD8FFA,18,18,0x0,0x4,0x0,1,G,0xD320A004,41,45,43,44,39,50,45,49,50,B,0x77B,44,41,42,38,47,48,48,45,40,E,18,44.89
[15:49:44]$GNRMC,074953.000,A,3029.284463,N,11433.425722,E,0.052,159.28,090119,,E,A*0E
[15:49:44]$GNGGA,074953.000,3029.284463,N,11433.425722,E,1,18,0.77,71.503,M,0,M,,*6E
[15:49:44]$GNTXT,20190109,074953,3,2,5,0.85,19,0x2FD8FFA,18,18,0x0,0x4,0x0,1,G,0xD320A004,41,46,44,43,38,49,45,49,49,B,0x77B,43,40,40,37,46,47,47,44,39,E,18,44.32
[15:49:49]$GNRMC,074954.000,A,3029.284462,N,11433.425721,E,0.028,164.68,090119,,E,A*0C
[15:49:49]$GNGGA,074954.000,3029.284462,N,11433.425721,E,1,18,0.78,71.506,M,0,M,,*61
[15:49:49]$GNTXT,20190109,074954,3,2,5,0.85,19,0x2FD8FFA,18,18,0x0,0x4,0x0,1,G,0xD320A004,41,46,44,44,39,50,46,50,50,B,0x77B,44,41,41,38,46,47,47,45,39,E,18,44.90
[15:49:49]$GNRMC,074955.000,A,3029.284462,N,11433.425721,E,0.008,248.18,090119,,E,A*05
[15:49:49]$GNGGA,074955.000,3029.284462,N,11433.425721,E,1,18,0.78,71.506,M,0,M,,*60
[15:49:49]$GNTXT,20190109,074955,3,2,5,0.83,19,0x2FD8FFA,18,18,0x0,0x4,0x0,1,G,0xD320A004,41,45,44,43,39,49,45,49,49,B,0x77B,44,42,42,38,47,48,48,45,39,E,18,44.81
[15:49:49]$GNRMC,074956.000,A,3029.284462,N,11433.425721,E,0.014,115.12,090119,,E,A*0A
[15:49:49]$GNGGA,074956.000,3029.284462,N,11433.425721,E,1,18,0.78,71.508,M,0,M,,*6D
[15:49:49]$GNTXT,20190109,074956,3,2,5,0.83,19,0x2FD8FFA,18,18,0x0,0x4,0x0,1,G,0xD320A004,40,45,43,44,39,49,45,49,49,B,0x77B,44,41,42,38,47,48,48,45,40,E,18,44.72
[15:49:49]$GNRMC,074957.000,A,3029.284463,N,11433.425719,E,0.034,179.66,090119,,E,A*0A
[15:49:49]$GNGGA,074957.000,3029.284463,N,11433.425719,E,1,18,0.78,71.508,M,0,M,,*66
[15:49:49]$GNTXT,20190109,074957,3,2,5,0.83,19,0x2FD8FFA,18,18,0x0,0x4,0x0,1,G,0xD320A004,40,45,43,43,38,48,45,48,49,B,0x77B,44,40,41,37,46,47,47,44,39,E,18,44.10
[15:49:49]$GNRMC,074958.000,A,3029.284462,N,11433.425719,E,0.034,192.70,090119,,E,A*06
[15:49:49]$GNGGA,074958.000,3029.284462,N,11433.425719,E,1,18,0.78,71.511,M,0,M,,*60
[15:49:49]$GNTXT,20190109,074958,3,2,5,0.74,19,0x2FD8FFA,18,18,0x0,0x4,0x0,1,G,0xD320A004,41,45,43,44,38,49,45,49,49,B,0x77B,44,42,42,38,47,48,48,45,40,E,18,44.73
[15:49:49]$GNRMC,074959.000,A,3029.284463,N,11433.425717,E,0.066,173.19,090119,,E,A*0F
[15:49:50]$GNGGA,074959.000,3029.284463,N,11433.425717,E,1,18,0.78,71.510,M,0,M,,*6F
[15:49:50]$GNTXT,20190109,074959,3,2,5,0.77,19,0x2FD8FFA,18,18,0x0,0x4,0x0,1,G,0xD320A004,40,45,42,43,38,48,44,48,49,B,0x77B,44,41,42,38,47,48,48,45,40,E,18,44.30
[15:50:04]$GNRMC,075013.000,A,3029.284462,N,11433.425709,E,0.060,112.34,090119,,E,A*09
[15:50:04]$GNGGA,075013.000,3029.284462,N,11433.425709,E,1,18,0.78,71.512,M,0,M,,*65
[15:50:04]$GNTXT,20190109,075013,3,2,5,0.71,19,0x2FD8FFA,18,18,0x0,0x4,0x0,1,G,0xD320A004,41,45,43,44,37,49,45,49,49,B,0x77B,44,41,42,38,47,48,48,45,39,E,18,44.62
[15:50:04]$GNRMC,075014.000,A,3029.284461,N,11433.425709,E,0.023,142.29,090119,,E,A*03
[15:50:04]$GNGGA,075014.000,3029.284461,N,11433.425709,E,1,18,0.78,71.513,M,0,M,,*60
[15:50:05]$GNTXT,20190109,075014,3,2,5,0.69,19,0x2FD8FFA,18,18,0x0,0x4,0x0,1,G,0xD320A004,40,45,43,44,38,49,45,49,49,B,0x77B,44,42,41,37,47,48,48,45,39,E,18,44.51
[15:50:05]$GNRMC,075015.000,A,3029.284462,N,11433.425709,E,0.020,133.05,090119,,E,A*0A
[15:50:05]$GNGGA,075015.000,3029.284462,N,11433.425709,E,1,18,0.78,71.513,M,0,M,,*62
[15:50:06]$GNTXT,20190109,075015,3,2,5,0.63,19,0x2FD8FFA,18,18,0x0,0x4,0x0,1,G,0xD320A004,41,46,44,44,39,50,46,49,50,B,0x77B,44,41,42,38,47,48,48,45,39,E,18,44.86
[15:50:06]$GNRMC,075016.000,A,3029.284462,N,11433.425709,E,0.018,122.06,090119,,E,A*01
[15:50:06]$GNGGA,075016.000,3029.284462,N,11433.425709,E,1,18,0.78,71.513,M,0,M,,*61
[15:50:07]$GNTXT,20190109,075016,3,2,5,0.53,19,0x2FD8FFA,18,18,0x0,0x4,0x0,1,G,0xD320A004,42,46,44,44,38,50,45,49,50,B,0x77B,44,42,42,38,47,48,48,45,39,E,18,45.04
[15:50:08]$GNRMC,075017.000,A,3029.284462,N,11433.425708,E,0.032,162.51,090119,,E,A*0F
[15:50:08]$GNGGA,075017.000,3029.284462,N,11433.425708,E,1,18,0.78,71.513,M,0,M,,*61
[15:50:08]$GNTXT,20190109,075017,3,2,5,0.52,19,0x2FD8FFA,18,18,0x0,0x4,0x0,1,G,0xD320A004,41,45,43,44,38,49,45,49,49,B,0x77B,44,41,41,38,47,48,48,45,39,E,18,44.69
[15:50:08]$GNRMC,075018.000,A,3029.284462,N,11433.425708,E,0.037,147.78,090119,,E,A*09
[15:50:08]$GNGGA,075018.000,3029.284462,N,11433.425708,E,1,18,0.78,71.513,M,0,M,,*6E
[15:50:09]$GNTXT,20190109,075018,3,2,5,0.55,19,0x2FD8FFA,18,18,0x0,0x4,0x0,1,G,0xD320A004,40,45,43,43,38,49,44,49,49,B,0x77B,44,41,41,38,47,48,47,44,38,E,18,44.30
[15:50:09]$GNRMC,075019.000,A,3029.284462,N,11433.425708,E,0.038,142.88,090119,,E,A*0D
[15:50:09]$GNGGA,075019.000,3029.284462,N,11433.425708,E,1,18,0.78,71.512,M,0,M,,*6E
[15:50:10]$GNTXT,20190109,075019,3,2,5,0.57,19,0x2FD8FFA,18,18,0x0,0x4,0x0,1,G,0xD320A004,40,44,43,43,37,48,44,48,48,B,0x77B,44,41,41,38,46,47,47,44,38,E,18,43.92
[15:50:11]$GNRMC,075020.000,A,3029.284463,N,11433.425708,E,0.039,141.77,090119,,E,A*04
[15:50:11]$GNGGA,075020.000,3029.284463,N,11433.425708,E,1,18,0.78,71.513,M,0,M,,*64
[15:50:11]$GNTXT,20190109,075020,3,2,5,0.60,19,0x2FD8FFA,18,18,0x0,0x4,0x0,1,G,0xD320A004,41,46,44,44,38,49,45,49,49,B,0x77B,44,40,41,38,46,47,47,44,39,E,18,44.34
[15:50:11]$GNRMC,075021.000,A,3029.284463,N,11433.425708,E,0.033,162.06,090119,,E,A*08
[15:50:11]$GNGGA,075021.000,3029.284463,N,11433.425708,E,1,18,0.78,71.513,M,0,M,,*65
[15:50:12]$GNTXT,20190109,075021,3,2,5,0.64,19,0x2FD8FFA,18,18,0x0,0x4,0x0,1,G,0xD320A004,40,46,43,44,38,49,45,49,50,B,0x77B,44,40,41,37,46,47,47,44,39,E,18,44.39
[15:50:12]$GNRMC,075022.000,A,3029.284463,N,11433.425707,E,0.037,167.96,090119,,E,A*0C
[15:50:12]$GNGGA,075022.000,3029.284463,N,11433.425707,E,1,18,0.78,71.513,M,0,M,,*69
[15:50:13]$GNTXT,20190109,075022,3,2,5,0.72,19,0x2FD8FFA,18,18,0x0,0x4,0x0,1,G,0xD320A004,41,45,43,44,38,49,45,49,50,B,0x77B,45,41,41,38,47,48,48,45,39,E,18,44.61
[15:50:40]$GNRMC,075050.000,A,3029.284460,N,11433.425694,E,0.090,155.36,090119,,E,A*07
[15:50:40]$GNGGA,075050.000,3029.284460,N,11433.425694,E,1,18,0.78,71.538,M,0,M,,*6D
[15:50:41]$GNTXT,20190109,075050,3,2,5,0.78,19,0x2FD8FFA,18,18,0x0,0x4,0x0,1,G,0xD320A004,40,44,43,43,37,49,45,48,49,B,0x77B,44,41,41,38,47,48,47,45,39,E,18,44.22
[15:50:42]$GNRMC,075051.000,A,3029.284461,N,11433.425693,E,0.074,169.05,090119,,E,A*05
[15:50:42]$GNGGA,075051.000,3029.284461,N,11433.425693,E,1,18,0.78,71.538,M,0,M,,*6A
[15:50:42]$GNTXT,20190109,075051,3,2,5,0.78,19,0x2FD8FFA,18,18,0x0,0x4,0x0,1,G,0xD320A004,40,45,42,43,36,48,45,48,48,B,0x77B,44,42,41,38,47,48,48,45,40,E,18,44.27
[15:50:42]$GNRMC,075052.000,A,3029.284461,N,11433.425693,E,0.037,181.10,090119,,E,A*03
[15:50:43]$GNGGA,075052.000,3029.284461,N,11433.425693,E,1,18,0.78,71.538,M,0,M,,*69
[15:50:43]$GNTXT,20190109,075052,3,2,5,0.82,19,0x2FD8FFA,18,18,0x0,0x4,0x0,1,G,0xD320A004,40,44,42,43,36,48,44,48,48,B,0x77B,44,41,41,38,47,48,48,45,39,E,18,43.99
[15:50:43]$GNRMC,075053.000,A,3029.284461,N,11433.425692,E,0.024,209.01,090119,,E,A*02
[15:50:43]$GNGGA,075053.000,3029.284461,N,11433.425692,E,1,18,0.78,71.539,M,0,M,,*68
[15:50:44]$GNTXT,20190109,075053,3,2,5,0.76,19,0x2FD8FFA,18,18,0x0,0x4,0x0,1,G,0xD320A004,41,44,42,43,36,48,45,48,48,B,0x77B,44,41,41,38,47,48,48,45,39,E,18,44.19
[15:50:44]$GNRMC,075054.000,A,3029.284462,N,11433.425691,E,0.037,182.97,090119,,E,A*08
[15:50:44]$GNGGA,075054.000,3029.284462,N,11433.425691,E,1,18,0.78,71.539,M,0,M,,*6F
[15:50:45]$GNTXT,20190109,075054,3,2,5,0.75,19,0x2FD8FFA,18,18,0x0,0x4,0x0,1,G,0xD320A004,41,45,43,43,36,48,45,48,49,B,0x77B,45,42,42,39,47,48,48,45,40,E,18,44.58
[15:50:46]$GNRMC,075055.000,A,3029.284462,N,11433.425691,E,0.035,147.54,090119,,E,A*0D
[15:50:46]$GNGGA,075055.000,3029.284462,N,11433.425691,E,1,18,0.78,71.540,M,0,M,,*60
[15:50:46]$GNTXT,20190109,075055,3,2,5,0.79,19,0x2FD8FFA,18,18,0x0,0x4,0x0,1,G,0xD320A004,40,44,42,43,35,48,44,48,48,B,0x77B,45,41,42,38,47,48,48,45,40,E,18,44.32
[15:50:46]$GNRMC,075056.000,A,3029.284462,N,11433.425690,E,0.043,137.03,090119,,E,A*0B
[15:50:46]$GNGGA,075056.000,3029.284462,N,11433.425690,E,1,18,0.78,71.542,M,0,M,,*60
[15:50:47]$GNTXT,20190109,075056,3,2,5,0.80,19,0x2FD8FFA,18,18,0x0,0x4,0x0,1,G,0xD320A004,41,44,43,43,36,48,44,48,49,B,0x77B,44,41,41,38,47,48,48,45,40,E,18,44.32
[15:50:47]$GNRMC,075057.000,A,3029.284461,N,11433.425690,E,0.026,168.71,090119,,E,A*05
[15:50:47]$GNGGA,075057.000,3029.284461,N,11433.425690,E,1,18,0.78,71.545,M,0,M,,*65
[15:50:48]$GNTXT,20190109,075057,3,2,5,0.92,19,0x2FD8FFA,18,18,0x0,0x4,0x0,1,G,0xD320A004,41,44,43,43,36,48,44,48,49,B,0x77B,44,41,41,37,47,48,47,45,39,E,18,44.06
[15:50:49]$GNRMC,075058.000,A,3029.284461,N,11433.425690,E,0.039,175.76,090119,,E,A*0F
[15:50:49]$GNGGA,075058.000,3029.284461,N,11433.425690,E,1,18,0.78,71.548,M,0,M,,*67
[15:50:49]$GNTXT,20190109,075058,3,2,5,0.92,19,0x2FD8FFA,18,18,0x0,0x4,0x0,1,G,0xD320A004,41,45,43,44,37,49,44,49,49,B,0x77B,44,41,41,38,47,48,47,44,39,E,18,44.41
[15:50:49]$GNRMC,075059.000,A,3029.284461,N,11433.425690,E,0.039,175.09,090119,,E,A*06
[15:50:49]$GNGGA,075059.000,3029.284461,N,11433.425690,E,1,18,0.78,71.552,M,0,M,,*6D
[15:50:50]$GNTXT,20190109,075059,3,2,5,0.95,19,0x2FD8FFA,18,18,0x0,0x4,0x0,1,G,0xD320A004,41,46,44,44,37,49,45,49,50,B,0x77B,44,41,41,38,46,47,47,45,40,E,18,44.60
[15:51:52]$GNRMC,075201.000,A,3029.284466,N,11433.425689,E,0.031,202.88,090119,,E,A*04
[15:51:52]$GNGGA,075201.000,3029.284466,N,11433.425689,E,1,18,0.78,71.645,M,0,M,,*68
[15:51:52]$GNTXT,20190109,075201,3,2,5,0.71,19,0x2FD8FFA,18,18,0x0,0x4,0x0,1,G,0xD320A004,43,46,45,45,39,51,45,50,51,B,0x77B,45,42,42,39,47,49,49,46,41,E,18,45.76
[15:51:52]$GNRMC,075202.000,A,3029.284467,N,11433.425689,E,0.033,186.90,090119,,E,A*02
[15:51:52]$GNGGA,075202.000,3029.284467,N,11433.425689,E,1,18,0.78,71.644,M,0,M,,*6B
[15:51:53]$GNTXT,20190109,075202,3,2,5,0.66,19,0x2FD8FFA,18,18,0x0,0x4,0x0,1,G,0xD320A004,43,46,44,45,39,50,45,50,50,B,0x77B,45,42,43,39,47,49,48,46,40,E,18,45.55
[15:51:53]$GNRMC,075203.000,A,3029.284467,N,11433.425689,E,0.035,199.28,090119,,E,A*08
[15:51:53]$GNGGA,075203.000,3029.284467,N,11433.425689,E,1,18,0.78,71.645,M,0,M,,*6B
[15:51:54]$GNTXT,20190109,075203,3,2,5,0.63,19,0x2FD8FFA,18,18,0x0,0x4,0x0,1,G,0xD320A004,42,45,43,44,38,50,45,49,50,B,0x77B,45,43,42,40,47,49,48,46,40,E,18,45.33
[15:51:54]$GNRMC,075204.000,A,3029.284467,N,11433.425689,E,0.023,194.42,090119,,E,A*09
[15:51:54]$GNGGA,075204.000,3029.284467,N,11433.425689,E,1,18,0.78,71.646,M,0,M,,*6F
[15:51:55]$GNTXT,20190109,075204,3,2,5,0.64,19,0x2FD8FFA,18,18,0x0,0x4,0x0,1,G,0xD320A004,43,46,44,45,39,51,46,50,50,B,0x77B,45,42,42,38,47,48,48,46,40,E,18,45.59
[15:51:56]$GNRMC,075205.000,A,3029.284467,N,11433.425689,E,0.017,197.91,090119,,E,A*02
[15:51:56]$GNGGA,075205.000,3029.284467,N,11433.425689,E,1,18,0.78,71.648,M,0,M,,*60
[15:51:56]$GNTXT,20190109,075205,3,2,5,0.66,19,0x2FD8FFA,18,18,0x0,0x4,0x0,1,G,0xD320A004,43,45,44,45,39,50,45,49,50,B,0x77B,45,41,41,39,47,48,48,45,39,E,18,45.05
[15:51:56]$GNRMC,075206.000,A,3029.284467,N,11433.425689,E,0.020,216.68,090119,,E,A*09
[15:51:56]$GNGGA,075206.000,3029.284467,N,11433.425689,E,1,18,0.78,71.651,M,0,M,,*6B
[15:51:57]$GNTXT,20190109,075206,3,2,5,0.62,19,0x2FD8FFA,18,18,0x0,0x4,0x0,1,G,0xD320A004,43,45,44,44,39,49,45,49,49,B,0x77B,45,41,42,39,47,48,48,45,40,E,18,45.02
[15:51:57]$GNRMC,075207.000,A,3029.284467,N,11433.425690,E,0.020,195.12,090119,,E,A*05
[15:51:57]$GNGGA,075207.000,3029.284467,N,11433.425690,E,1,18,0.78,71.653,M,0,M,,*60
[15:51:58]$GNTXT,20190109,075207,3,2,5,0.61,19,0x2FD8FFA,18,18,0x0,0x4,0x0,1,G,0xD320A004,43,45,44,44,38,50,45,49,49,B,0x77B,45,42,42,39,47,48,48,46,39,E,18,45.17
[15:51:58]$GNRMC,075208.000,A,3029.284467,N,11433.425690,E,0.035,184.66,090119,,E,A*0D
[15:51:59]$GNGGA,075208.000,3029.284467,N,11433.425690,E,1,18,0.78,71.655,M,0,M,,*69
[15:51:59]$GNTXT,20190109,075208,3,2,5,0.50,19,0x2FD8FFA,18,18,0x0,0x4,0x0,1,G,0xD320A004,42,45,44,44,38,49,45,49,49,B,0x77B,44,41,42,38,47,48,48,45,39,E,18,44.76
[15:51:59]$GNRMC,075209.000,A,3029.284467,N,11433.425691,E,0.032,188.49,090119,,E,A*0B
[15:52:00]$GNGGA,075209.000,3029.284467,N,11433.425691,E,1,18,0.78,71.656,M,0,M,,*6A
[15:52:00]$GNTXT,20190109,075209,3,2,5,0.46,19,0x2FD8FFA,18,18,0x0,0x4,0x0,1,G,0xD320A004,42,45,44,44,38,49,45,49,49,B,0x77B,44,41,42,39,47,48,48,45,39,E,18,44.85
[15:52:00]$GNRMC,075210.000,A,3029.284467,N,11433.425691,E,0.031,176.71,090119,,E,A*0A
[15:52:00]$GNGGA,075210.000,3029.284467,N,11433.425691,E,1,18,0.78,71.658,M,0,M,,*6C
[15:52:01]$GNTXT,20190109,075210,3,2,5,0.49,19,0x2FD8FFA,18,18,0x0,0x4,0x0,1,G,0xD320A004,42,45,44,44,38,49,45,49,49,B,0x77B,44,42,41,38,46,48,47,45,38,E,18,44.62
[15:53:03]$GNRMC,075312.000,A,3029.284473,N,11433.425709,E,0.066,162.50,090119,,E,A*08
[15:53:03]$GNGGA,075312.000,3029.284473,N,11433.425709,E,1,18,0.78,71.703,M,0,M,,*65
[15:53:03]$GNTXT,20190109,075312,3,2,5,0.59,19,0x2FD8FFA,18,18,0x0,0x4,0x0,1,G,0xD320A004,42,45,43,43,37,49,44,48,49,B,0x77B,44,41,41,37,47,48,48,45,38,E,18,44.22
[15:53:03]$GNRMC,075313.000,A,3029.284473,N,11433.425709,E,0.053,175.08,090119,,E,A*04
[15:53:04]$GNGGA,075313.000,3029.284473,N,11433.425709,E,1,18,0.78,71.702,M,0,M,,*65
[15:53:04]$GNTXT,20190109,075313,3,2,5,0.54,19,0x2FD8FFA,18,18,0x0,0x4,0x0,1,G,0xD320A004,43,46,44,45,38,50,46,50,50,B,0x77B,44,41,41,38,46,47,47,45,38,E,18,44.85
[15:53:04]$GNRMC,075314.000,A,3029.284473,N,11433.425710,E,0.036,164.32,090119,,E,A*01
[15:53:04]$GNGGA,075314.000,3029.284473,N,11433.425710,E,1,18,0.78,71.701,M,0,M,,*69
[15:53:05]$GNTXT,20190109,075314,3,2,5,0.54,19,0x2FD8FFA,18,18,0x0,0x4,0x0,1,G,0xD320A004,43,46,44,45,38,50,46,49,50,B,0x77B,44,41,41,38,47,48,48,45,38,E,18,45.02
[15:53:06]$GNRMC,075315.000,A,3029.284474,N,11433.425710,E,0.041,174.53,090119,,E,A*01
[15:53:06]$GNGGA,075315.000,3029.284474,N,11433.425710,E,1,18,0.78,71.701,M,0,M,,*6F
[15:53:06]$GNTXT,20190109,075315,3,2,5,0.55,19,0x2FD8FFA,18,18,0x0,0x4,0x0,1,G,0xD320A004,42,45,43,44,38,49,45,49,49,B,0x77B,44,41,41,38,46,47,47,45,38,E,18,44.54
[15:53:06]$GNRMC,075316.000,A,3029.284474,N,11433.425711,E,0.044,188.25,090119,,E,A*04
[15:53:07]$GNGGA,075316.000,3029.284474,N,11433.425711,E,1,18,0.78,71.700,M,0,M,,*6C
[15:53:07]$GNTXT,20190109,075316,3,2,5,0.60,19,0x2FD8FFA,18,18,0x0,0x4,0x0,1,G,0xD320A004,42,45,44,44,38,49,44,49,49,B,0x77B,44,41,41,38,46,48,48,45,38,E,18,44.54
[15:53:07]$GNRMC,075317.000,A,3029.284475,N,11433.425711,E,0.041,179.95,090119,,E,A*04
[15:53:07]$GNGGA,075317.000,3029.284475,N,11433.425711,E,1,18,0.78,71.700,M,0,M,,*6C
[15:53:08]$GNTXT,20190109,075317,3,2,5,0.62,19,0x2FD8FFA,18,18,0x0,0x4,0x0,1,G,0xD320A004,42,45,44,44,38,50,45,49,50,B,0x77B,44,41,41,38,46,47,47,45,38,E,18,44.59
[15:53:09]$GNRMC,075318.000,A,3029.284475,N,11433.425712,E,0.055,172.18,090119,,E,A*03
[15:53:09]$GNGGA,075318.000,3029.284475,N,11433.425712,E,1,18,0.78,71.699,M,0,M,,*61
[15:53:09]$GNTXT,20190109,075318,3,2,5,0.70,19,0x2FD8FFA,18,18,0x0,0x4,0x0,1,G,0xD320A004,42,45,44,44,37,49,44,49,49,B,0x77B,43,41,41,37,46,47,47,44,38,E,18,44.30
[15:53:10]$GNRMC,075319.000,A,3029.284476,N,11433.425712,E,0.042,174.18,090119,,E,A*01
[15:53:10]$GNGGA,075319.000,3029.284476,N,11433.425712,E,1,18,0.78,71.699,M,0,M,,*63
[15:53:10]$GNTXT,20190109,075319,3,2,5,0.72,19,0x2FD8FFA,18,18,0x0,0x4,0x0,1,G,0xD320A004,42,45,44,44,38,50,45,49,49,B,0x77B,44,41,41,38,46,47,47,44,38,E,18,44.42
[15:53:10]$GNRMC,075320.000,A,3029.284476,N,11433.425712,E,0.041,178.87,090119,,E,A*02
[15:53:10]$GNGGA,075320.000,3029.284476,N,11433.425712,E,1,18,0.78,71.697,M,0,M,,*67
[15:53:11]$GNTXT,20190109,075320,3,2,5,0.74,19,0x2FD8FFA,18,18,0x0,0x4,0x0,1,G,0xD320A004,42,46,44,44,38,50,45,49,50,B,0x77B,43,41,41,38,46,47,47,44,38,E,18,44.56
[15:53:11]$GNRMC,075321.000,A,3029.284477,N,11433.425712,E,0.037,182.22,090119,,E,A*09
[15:53:11]$GNGGA,075321.000,3029.284477,N,11433.425712,E,1,18,0.78,71.697,M,0,M,,*67
[15:53:12]$GNTXT,20190109,075321,3,2,5,0.68,19,0x2FD8FFA,18,18,0x0,0x4,0x0,1,G,0xD320A004,42,46,44,44,38,50,45,49,50,B,0x77B,44,40,41,38,46,47,47,45,38,E,18,44.60
[15:54:14]$GNRMC,075423.000,A,3029.284466,N,11433.425750,E,0.033,198.56,090119,,E,A*06
[15:54:14]$GNGGA,075423.000,3029.284466,N,11433.425750,E,1,18,0.78,71.665,M,0,M,,*69
[15:54:14]$GNTXT,20190109,075423,3,2,5,0.60,19,0x2FD8FFA,18,18,0x0,0x4,0x0,1,G,0xD320A004,43,46,45,45,39,51,45,50,50,B,0x77B,44,41,41,39,47,48,48,45,38,E,18,45.23
[15:54:14]$GNRMC,075424.000,A,3029.284466,N,11433.425751,E,0.020,173.22,090119,,E,A*04
[15:54:14]$GNGGA,075424.000,3029.284466,N,11433.425751,E,1,18,0.78,71.665,M,0,M,,*6F
[15:54:15]$GNTXT,20190109,075424,3,2,5,0.58,19,0x2FD8FFA,18,18,0x0,0x4,0x0,1,G,0xD320A004,43,46,44,44,39,50,45,49,50,B,0x77B,45,42,42,39,47,48,49,46,39,E,18,45.34
[15:54:16]$GNRMC,075425.000,A,3029.284466,N,11433.425752,E,0.022,148.30,090119,,E,A*0F
[15:54:16]$GNGGA,075425.000,3029.284466,N,11433.425752,E,1,18,0.78,71.665,M,0,M,,*6D
[15:54:16]$GNTXT,20190109,075425,3,2,5,0.58,19,0x2FD8FFA,18,18,0x0,0x4,0x0,1,G,0xD320A004,44,46,45,45,39,51,46,50,51,B,0x77B,44,42,41,38,47,48,48,45,38,E,18,45.39
[15:54:17]$GNRMC,075426.000,A,3029.284466,N,11433.425753,E,0.036,192.69,090119,,E,A*03
[15:54:17]$GNGGA,075426.000,3029.284466,N,11433.425753,E,1,18,0.79,71.665,M,0,M,,*6E
[15:54:17]$GNTXT,20190109,075426,3,2,5,0.62,19,0x2FD8FFA,18,18,0x0,0x4,0x0,1,G,0xD320A004,44,46,45,45,39,51,46,50,51,B,0x77B,44,41,42,39,47,48,48,45,39,E,18,45.51
[15:54:17]$GNRMC,075427.000,A,3029.284466,N,11433.425754,E,0.038,182.80,090119,,E,A*0D
[15:54:17]$GNGGA,075427.000,3029.284466,N,11433.425754,E,1,18,0.79,71.663,M,0,M,,*6E
[15:54:18]$GNTXT,20190109,075427,3,2,5,0.69,19,0x2FD8FFA,18,18,0x0,0x4,0x0,1,G,0xD320A004,44,46,45,46,38,51,46,50,51,B,0x77B,44,41,42,39,47,48,48,45,39,E,18,45.51
[15:54:19]$GNRMC,075428.000,A,3029.284466,N,11433.425755,E,0.015,180.20,090119,,E,A*04
[15:54:19]$GNGGA,075428.000,3029.284466,N,11433.425755,E,1,18,0.79,71.662,M,0,M,,*61
[15:54:19]$GNTXT,20190109,075428,3,2,5,0.70,19,0x2FD8FFA,18,18,0x0,0x4,0x0,1,G,0xD320A004,43,46,45,45,38,51,45,50,50,B,0x77B,44,42,41,38,47,48,48,45,39,E,18,45.35
[15:54:19]$GNRMC,075429.000,A,3029.284466,N,11433.425755,E,0.039,186.20,090119,,E,A*0D
[15:54:19]$GNGGA,075429.000,3029.284466,N,11433.425755,E,1,18,0.79,71.661,M,0,M,,*63
[15:54:20]$GNTXT,20190109,075429,3,2,5,0.81,19,0x2FD8FFA,18,18,0x0,0x4,0x0,1,G,0xD320A004,43,46,45,45,38,51,45,50,51,B,0x77B,44,41,42,39,47,48,48,45,39,E,18,45.39
[15:54:20]$GNRMC,075430.000,A,3029.284466,N,11433.425756,E,0.040,211.55,090119,,E,A*07
[15:54:20]$GNGGA,075430.000,3029.284466,N,11433.425756,E,1,18,0.79,71.659,M,0,M,,*63
[15:54:21]$GNTXT,20190109,075430,3,2,5,0.89,19,0x2FD8FFA,18,18,0x0,0x4,0x0,1,G,0xD320A004,43,46,45,45,38,50,45,50,50,B,0x77B,44,42,42,39,47,48,48,46,39,E,18,45.32
[15:54:21]$GNRMC,075431.000,A,3029.284466,N,11433.425757,E,0.023,190.95,090119,,E,A*04
[15:54:22]$GNGGA,075431.000,3029.284466,N,11433.425757,E,1,18,0.79,71.658,M,0,M,,*62
[15:54:22]$GNTXT,20190109,075431,3,2,5,0.87,19,0x2FD8FFA,18,18,0x0,0x4,0x0,1,G,0xD320A004,43,45,44,44,38,50,45,49,50,B,0x77B,45,42,42,39,47,48,48,46,39,E,18,45.17
[15:54:22]$GNRMC,075432.000,A,3029.284466,N,11433.425757,E,0.035,180.20,090119,,E,A*0F
[15:54:22]$GNGGA,075432.000,3029.284466,N,11433.425757,E,1,18,0.79,71.656,M,0,M,,*6F
[15:54:23]$GNTXT,20190109,075432,3,2,5,0.83,19,0x2FD8FFA,18,18,0x0,0x4,0x0,1,G,0xD320A004,43,45,44,44,38,49,44,49,49,B,0x77B,45,42,42,39,47,48,48,45,39,E,18,44.94
[15:55:24]$GNRMC,075534.000,A,3029.284454,N,11433.425791,E,0.060,188.96,090119,,E,A*06
[15:55:25]$GNGGA,075534.000,3029.284454,N,11433.425791,E,1,18,0.79,71.662,M,0,M,,*64
[15:55:25]$GNTXT,20190109,075534,3,2,5,0.73,19,0x2FD8FFA,18,18,0x0,0x4,0x0,1,G,0xD320A004,43,45,45,44,38,50,45,49,50,B,0x77B,44,41,41,38,47,48,48,45,39,E,18,44.87
[15:55:25]$GNRMC,075535.000,A,3029.284454,N,11433.425791,E,0.054,183.73,090119,,E,A*00
[15:55:25]$GNGGA,075535.000,3029.284454,N,11433.425791,E,1,18,0.79,71.662,M,0,M,,*65
[15:55:26]$GNTXT,20190109,075535,3,2,5,0.67,19,0x2FD8FFA,18,18,0x0,0x4,0x0,1,G,0xD320A004,43,45,44,44,37,50,45,50,50,B,0x77B,44,41,41,37,47,48,48,45,39,E,18,44.85
[15:55:27]$GNRMC,075536.000,A,3029.284454,N,11433.425792,E,0.054,188.66,090119,,E,A*0F
[15:55:27]$GNGGA,075536.000,3029.284454,N,11433.425792,E,1,18,0.79,71.661,M,0,M,,*66
[15:55:27]$GNTXT,20190109,075536,3,2,5,0.56,19,0x2FD8FFA,18,18,0x0,0x4,0x0,1,G,0xD320A004,43,46,45,45,38,51,46,50,50,B,0x77B,44,41,41,39,46,48,48,45,38,E,18,45.06
[15:55:27]$GNRMC,075537.000,A,3029.284454,N,11433.425792,E,0.046,177.21,090119,,E,A*0E
[15:55:27]$GNGGA,075537.000,3029.284454,N,11433.425792,E,1,18,0.79,71.662,M,0,M,,*64
[15:55:28]$GNTXT,20190109,075537,3,2,5,0.60,19,0x2FD8FFA,18,18,0x0,0x4,0x0,1,G,0xD320A004,43,46,44,44,38,50,46,50,50,B,0x77B,44,42,41,38,47,48,48,45,39,E,18,45.03
[15:55:28]$GNRMC,075538.000,A,3029.284454,N,11433.425793,E,0.053,183.48,090119,,E,A*00
[15:55:28]$GNGGA,075538.000,3029.284454,N,11433.425793,E,1,18,0.79,71.662,M,0,M,,*6A
[15:55:29]$GNTXT,20190109,075538,3,2,5,0.60,19,0x2FD8FFA,18,18,0x0,0x4,0x0,1,G,0xD320A004,43,45,44,44,38,50,45,50,50,B,0x77B,44,41,41,38,46,48,47,45,39,E,18,44.82
[15:55:29]$GNRMC,075539.000,A,3029.284454,N,11433.425793,E,0.046,190.20,090119,,E,A*09
[15:55:30]$GNGGA,075539.000,3029.284454,N,11433.425793,E,1,18,0.79,71.662,M,0,M,,*6B
[15:55:30]$GNTXT,20190109,075539,3,2,5,0.61,19,0x2FD8FFA,18,18,0x0,0x4,0x0,1,G,0xD320A004,42,45,44,44,38,50,45,49,49,B,0x77B,44,41,41,38,46,47,47,45,39,E,18,44.62
[15:55:30]$GNRMC,075540.000,A,3029.284453,N,11433.425795,E,0.057,188.21,090119,,E,A*0E
[15:55:30]$GNGGA,075540.000,3029.284453,N,11433.425795,E,1,18,0.79,71.664,M,0,M,,*62
[15:55:31]$GNTXT,20190109,075540,3,2,5,0.70,19,0x2FD8FFA,18,18,0x0,0x4,0x0,1,G,0xD320A004,41,44,43,43,36,48,44,48,48,B,0x77B,44,41,41,38,46,48,47,45,38,E,18,43.96
[15:55:31]$GNRMC,075541.000,A,3029.284452,N,11433.425795,E,0.043,177.93,090119,,E,A*02
[15:55:31]$GNGGA,075541.000,3029.284452,N,11433.425795,E,1,18,0.79,71.667,M,0,M,,*61
[15:55:32]$GNTXT,20190109,075541,3,2,5,0.73,19,0x2FD8FFA,18,18,0x0,0x4,0x0,1,G,0xD320A004,42,44,44,43,38,49,44,49,49,B,0x77B,43,41,41,38,46,47,47,44,39,E,18,44.32
[15:55:32]$GNRMC,075542.000,A,3029.284451,N,11433.425796,E,0.049,178.50,090119,,E,A*0B
[15:55:33]$GNGGA,075542.000,3029.284451,N,11433.425796,E,1,18,0.79,71.670,M,0,M,,*64
[15:55:33]$GNTXT,20190109,075542,3,2,5,0.73,19,0x2FD8FFA,18,18,0x0,0x4,0x0,1,G,0xD320A004,42,45,44,44,38,50,45,49,49,B,0x77B,43,41,41,38,46,47,47,44,38,E,18,44.55
[15:55:33]$GNRMC,075543.000,A,3029.284451,N,11433.425796,E,0.045,191.06,090119,,E,A*02
[15:55:33]$GNGGA,075543.000,3029.284451,N,11433.425796,E,1,18,0.79,71.674,M,0,M,,*61
[15:55:34]$GNTXT,20190109,075543,3,2,5,0.79,19,0x2FD8FFA,18,18,0x0,0x4,0x0,1,G,0xD320A004,42,45,44,45,38,50,45,50,50,B,0x77B,44,41,41,38,46,47,47,44,39,E,18,44.87
[15:56:36]$GNRMC,075645.000,A,3029.284429,N,11433.425827,E,0.068,195.84,090119,,E,A*0C
[15:56:36]$GNGGA,075645.000,3029.284429,N,11433.425827,E,1,18,0.79,71.749,M,0,M,,*61
[15:56:36]$GNTXT,20190109,075645,3,2,5,0.99,19,0x2FD8FFA,18,18,0x0,0x4,0x0,1,G,0xD320A004,43,45,44,44,36,50,45,49,49,B,0x77B,45,41,42,39,47,48,48,45,40,E,18,44.85
[15:56:36]$GNRMC,075646.000,A,3029.284429,N,11433.425828,E,0.080,191.81,090119,,E,A*07
[15:56:36]$GNGGA,075646.000,3029.284429,N,11433.425828,E,1,18,0.79,71.747,M,0,M,,*63
[15:56:37]$GNTXT,20190109,075646,3,2,5,1.04,19,0x2FD8FFA,18,18,0x0,0x4,0x0,1,G,0xD320A004,42,45,43,44,36,50,45,49,49,B,0x77B,44,41,41,38,47,48,48,45,40,E,18,44.58
[15:56:37]$GNRMC,075647.000,A,3029.284430,N,11433.425829,E,0.038,189.54,090119,,E,A*0D
[15:56:37]$GNGGA,075647.000,3029.284430,N,11433.425829,E,1,18,0.79,71.743,M,0,M,,*6F
[15:56:38]$GNTXT,20190109,075647,3,2,5,1.04,19,0x2FD8FFA,18,18,0x0,0x4,0x0,1,G,0xD320A004,43,45,43,44,37,50,45,49,49,B,0x77B,44,41,41,38,47,48,48,45,40,E,18,44.73
[15:56:39]$GNRMC,075648.000,A,3029.284430,N,11433.425830,E,0.050,194.11,090119,,E,A*09
[15:56:39]$GNGGA,075648.000,3029.284430,N,11433.425830,E,1,18,0.79,71.740,M,0,M,,*6B
[15:56:39]$GNTXT,20190109,075648,3,2,5,1.09,19,0x2FD8FFA,18,18,0x0,0x4,0x0,1,G,0xD320A004,42,45,43,44,36,50,45,49,49,B,0x77B,44,42,41,39,47,48,48,45,40,E,18,44.80
[15:56:39]$GNRMC,075649.000,A,3029.284431,N,11433.425831,E,0.029,194.95,090119,,E,A*0A
[15:56:39]$GNGGA,075649.000,3029.284431,N,11433.425831,E,1,18,0.79,71.738,M,0,M,,*65
[15:56:40]$GNTXT,20190109,075649,3,2,5,0.99,19,0x2FD8FFA,18,18,0x0,0x4,0x0,1,G,0xD320A004,43,46,45,45,38,51,46,50,50,B,0x77B,44,41,42,39,47,48,48,45,40,E,18,45.33
[15:56:40]$GNRMC,075650.000,A,3029.284431,N,11433.425832,E,0.037,179.63,090119,,E,A*04
[15:56:40]$GNGGA,075650.000,3029.284431,N,11433.425832,E,1,18,0.79,71.737,M,0,M,,*61
[15:56:41]$GNTXT,20190109,075650,3,2,5,0.96,19,0x2FD8FFA,18,18,0x0,0x4,0x0,1,G,0xD320A004,43,46,45,44,38,51,46,50,50,B,0x77B,44,41,41,38,47,48,48,45,40,E,18,45.02
[15:56:42]$GNRMC,075651.000,A,3029.284430,N,11433.425833,E,0.053,180.79,090119,,E,A*0A
[15:56:42]$GNGGA,075651.000,3029.284430,N,11433.425833,E,1,18,0.79,71.736,M,0,M,,*61
[15:56:42]$GNTXT,20190109,075651,3,2,5,0.98,19,0x2FD8FFA,18,18,0x0,0x4,0x0,1,G,0xD320A004,43,46,45,45,38,51,46,50,50,B,0x77B,45,42,41,39,47,48,48,45,40,E,18,45.52
[15:56:42]$GNRMC,075652.000,A,3029.284431,N,11433.425832,E,0.049,188.17,090119,,E,A*02
[15:56:42]$GNGGA,075652.000,3029.284431,N,11433.425832,E,1,18,0.79,71.737,M,0,M,,*63
[15:56:43]$GNTXT,20190109,075652,3,2,5,0.96,19,0x2FD8FFA,18,18,0x0,0x4,0x0,1,G,0xD320A004,43,46,45,45,39,51,46,50,50,B,0x77B,44,42,41,39,47,48,48,45,39,E,18,45.39
[15:56:43]$GNRMC,075653.000,A,3029.284431,N,11433.425832,E,0.044,184.73,090119,,E,A*00
[15:56:43]$GNGGA,075653.000,3029.284431,N,11433.425832,E,1,18,0.79,71.737,M,0,M,,*62
[15:56:44]$GNTXT,20190109,075653,3,2,5,0.98,19,0x2FD8FFA,18,18,0x0,0x4,0x0,1,G,0xD320A004,43,46,45,44,38,51,46,50,50,B,0x77B,45,42,42,39,47,48,48,45,40,E,18,45.41
[15:56:44]$GNRMC,075654.000,A,3029.284431,N,11433.425832,E,0.046,193.84,090119,,E,A*0B
[15:56:44]$GNGGA,075654.000,3029.284431,N,11433.425832,E,1,18,0.79,71.738,M,0,M,,*6A
[15:56:45]$GNTXT,20190109,075654,3,2,5,0.90,19,0x2FD8FFA,18,18,0x0,0x4,0x0,1,G,0xD320A004,42,45,44,43,37,50,45,48,48,B,0x77B,45,42,42,39,47,48,48,46,41,E,18,44.87
[15:58:08]$GNRMC,075756.000,A,3029.284433,N,11433.425830,E,0.070,166.69,090119,,E,A*04
[15:58:08]$GNGGA,075756.000,3029.284433,N,11433.425830,E,1,18,0.79,71.775,M,0,M,,*60
[15:58:08]$GNTXT,20190109,075756,3,2,5,0.99,19,0x2FD8FFA,18,18,0x0,0x4,0x0,1,G,0xD320A004,42,46,45,44,38,50,45,49,49,B,0x77B,44,42,41,39,47,48,48,45,40,E,18,45.17
[15:58:08]$GNRMC,075757.000,A,3029.284433,N,11433.425829,E,0.054,172.93,090119,,E,A*0B
[15:58:08]$GNGGA,075757.000,3029.284433,N,11433.425829,E,1,18,0.79,71.778,M,0,M,,*64
[15:58:08]$GNTXT,20190109,075757,3,2,5,0.95,19,0x2FD8FFA,18,18,0x0,0x4,0x0,1,G,0xD320A004,42,46,45,45,38,51,45,50,50,B,0x77B,44,41,41,39,47,48,48,45,40,E,18,45.20
[15:58:08]$GNRMC,075758.000,A,3029.284433,N,11433.425828,E,0.038,204.05,090119,,E,A*02
[15:58:08]$GNGGA,075758.000,3029.284433,N,11433.425828,E,1,18,0.79,71.781,M,0,M,,*6C
[15:58:08]$GNTXT,20190109,075758,3,2,5,1.00,19,0x2FD8FFA,18,18,0x0,0x4,0x0,1,G,0xD320A004,43,46,45,45,38,51,46,50,50,B,0x77B,44,41,41,38,46,48,47,45,39,E,18,45.05
[15:58:08]$GNRMC,075759.000,A,3029.284434,N,11433.425828,E,0.074,194.93,090119,,E,A*09
[15:58:08]$GNGGA,075759.000,3029.284434,N,11433.425828,E,1,18,0.79,71.781,M,0,M,,*6A
[15:58:08]$GNTXT,20190109,075759,3,2,5,1.03,19,0x2FD8FFA,18,18,0x0,0x4,0x0,1,G,0xD320A004,43,46,46,45,38,51,46,50,50,B,0x77B,44,42,42,39,47,48,48,45,40,E,18,45.53
[15:58:08]$GNRMC,075800.000,A,3029.284434,N,11433.425829,E,0.064,195.48,090119,,E,A*0D
[15:58:08]$GNGGA,075800.000,3029.284434,N,11433.425829,E,1,18,0.79,71.779,M,0,M,,*6F
[15:58:08]$GNTXT,20190109,075800,3,2,5,1.05,19,0x2FD8FFA,18,18,0x0,0x4,0x0,1,G,0xD320A004,43,46,45,45,38,50,46,49,49,B,0x77B,45,42,41,39,47,48,48,46,40,E,18,45.17
[15:58:08]$GNRMC,075801.000,A,3029.284434,N,11433.425829,E,0.043,200.24,090119,,E,A*0C
[15:58:08]$GNGGA,075801.000,3029.284434,N,11433.425829,E,1,18,0.79,71.780,M,0,M,,*68
[15:58:08]$GNTXT,20190109,075801,3,2,5,1.00,19,0x2FD8FFA,18,18,0x0,0x4,0x0,1,G,0xD320A004,43,46,45,45,38,51,45,50,50,B,0x77B,44,41,41,39,47,48,48,45,39,E,18,45.24
[15:58:08]$GNRMC,075802.000,A,3029.284435,N,11433.425829,E,0.055,169.37,090119,,E,A*07
[15:58:08]$GNGGA,075802.000,3029.284435,N,11433.425829,E,1,18,0.79,71.782,M,0,M,,*68
[15:58:08]$GNTXT,20190109,075802,3,2,5,0.95,19,0x2FD8FFA,18,18,0x0,0x4,0x0,1,G,0xD320A004,44,46,46,45,38,51,46,50,50,B,0x77B,44,42,41,39,47,48,48,45,40,E,18,45.61
[15:58:08]$GNRMC,075803.000,A,3029.284435,N,11433.425829,E,0.056,171.31,090119,,E,A*0A
[15:58:08]$GNGGA,075803.000,3029.284435,N,11433.425829,E,1,18,0.79,71.784,M,0,M,,*6F
[15:58:08]$GNTXT,20190109,075803,3,2,5,0.94,19,0x2FD8FFA,18,18,0x0,0x4,0x0,1,G,0xD320A004,43,46,45,45,37,50,46,50,49,B,0x77B,44,41,41,39,47,48,48,45,39,E,18,44.98
[15:58:08]$GNRMC,075804.000,A,3029.284436,N,11433.425828,E,0.038,174.62,090119,,E,A*04
[15:58:08]$GNGGA,075804.000,3029.284436,N,11433.425828,E,1,18,0.79,71.784,M,0,M,,*6A
[15:58:08]$GNTXT,20190109,075804,3,2,5,0.98,19,0x2FD8FFA,18,18,0x0,0x4,0x0,1,G,0xD320A004,43,46,45,45,38,51,46,50,49,B,0x77B,44,42,41,39,47,48,48,45,40,E,18,45.23
[15:58:08]$GNRMC,075805.000,A,3029.284436,N,11433.425828,E,0.053,173.06,090119,,E,A*0D
[15:58:08]$GNGGA,075805.000,3029.284436,N,11433.425828,E,1,18,0.79,71.787,M,0,M,,*68
[15:58:08]$GNTXT,20190109,075805,3,2,5,1.02,19,0x2FD8FFA,18,18,0x0,0x4,0x0,1,G,0xD320A004,43,46,45,45,38,51,46,50,49,B,0x77B,45,42,42,39,47,48,48,46,40,E,18,45.41
[15:58:58]$GNRMC,075907.000,A,3029.284432,N,11433.425853,E,0.038,180.90,090119,,E,A*08
[15:58:58]$GNGGA,075907.000,3029.284432,N,11433.425853,E,1,18,0.79,71.776,M,0,M,,*6D
[15:58:58]$GNTXT,20190109,075907,3,2,5,0.89,19,0x2FD8FFA,18,18,0x0,0x4,0x0,1,G,0xD320A004,41,45,45,43,36,50,44,49,49,B,0x77B,44,41,41,38,46,48,48,45,40,E,18,44.55
[15:58:58]$GNRMC,075908.000,A,3029.284433,N,11433.425853,E,0.036,166.17,090119,,E,A*0F
[15:58:58]$GNGGA,075908.000,3029.284433,N,11433.425853,E,1,18,0.79,71.776,M,0,M,,*63
[15:58:59]$GNTXT,20190109,075908,3,2,5,0.85,19,0x2FD8FFA,18,18,0x0,0x4,0x0,1,G,0xD320A004,41,45,44,43,36,49,44,48,48,B,0x77B,44,42,41,39,47,48,48,45,39,E,18,44.42
[15:58:59]$GNRMC,075909.000,A,3029.284433,N,11433.425853,E,0.041,186.60,090119,,E,A*00
[15:58:59]$GNGGA,075909.000,3029.284433,N,11433.425853,E,1,18,0.79,71.772,M,0,M,,*66
[15:59:00]$GNTXT,20190109,075909,3,2,5,0.83,19,0x2FD8FFA,18,18,0x0,0x4,0x0,1,G,0xD320A004,42,45,44,43,36,49,44,48,48,B,0x77B,44,41,41,38,47,48,48,45,39,E,18,44.40
[15:59:00]$GNRMC,075910.000,A,3029.284433,N,11433.425854,E,0.045,187.52,090119,,E,A*0B
[15:59:00]$GNGGA,075910.000,3029.284433,N,11433.425854,E,1,18,0.79,71.769,M,0,M,,*63
[15:59:01]$GNTXT,20190109,075910,3,2,5,0.85,19,0x2FD8FFA,18,18,0x0,0x4,0x0,1,G,0xD320A004,42,45,44,44,36,50,45,49,49,B,0x77B,44,41,41,38,47,48,48,45,40,E,18,44.70
[15:59:01]$GNRMC,075911.000,A,3029.284433,N,11433.425854,E,0.044,187.52,090119,,E,A*0B
[15:59:01]$GNGGA,075911.000,3029.284433,N,11433.425854,E,1,18,0.79,71.767,M,0,M,,*6C
[15:59:02]$GNTXT,20190109,075911,3,2,5,0.82,19,0x2FD8FFA,18,18,0x0,0x4,0x0,1,G,0xD320A004,41,44,43,43,35,49,44,48,48,B,0x77B,43,41,40,38,46,47,47,44,39,E,18,43.87
[15:59:02]$GNRMC,075912.000,A,3029.284433,N,11433.425854,E,0.046,188.32,090119,,E,A*03
[15:59:02]$GNGGA,075912.000,3029.284433,N,11433.425854,E,1,18,0.79,71.769,M,0,M,,*61
[15:59:03]$GNTXT,20190109,075912,3,2,5,0.88,19,0x2FD8FFA,18,18,0x0,0x4,0x0,1,G,0xD320A004,42,45,44,44,36,50,45,49,49,B,0x77B,43,41,40,38,46,47,47,45,39,E,18,44.38
[15:59:03]$GNRMC,075913.000,A,3029.284433,N,11433.425854,E,0.036,181.05,090119,,E,A*08
[15:59:03]$GNGGA,075913.000,3029.284433,N,11433.425854,E,1,18,0.79,71.768,M,0,M,,*61
[15:59:04]$GNTXT,20190109,075913,3,2,5,0.97,19,0x2FD8FFA,18,18,0x0,0x4,0x0,1,G,0xD320A004,41,45,44,43,36,49,44,48,48,B,0x77B,44,41,41,38,47,47,47,45,40,E,18,44.27
[15:59:04]$GNRMC,075914.000,A,3029.284433,N,11433.425855,E,0.031,189.63,090119,,E,A*01
[15:59:04]$GNGGA,075914.000,3029.284433,N,11433.425855,E,1,18,0.79,71.768,M,0,M,,*67
[15:59:05]$GNTXT,20190109,075914,3,2,5,1.06,19,0x2FD8FFA,18,18,0x0,0x4,0x0,1,G,0xD320A004,41,45,44,44,37,50,45,49,49,B,0x77B,44,41,40,39,46,47,47,45,40,E,18,44.56
[15:59:05]$GNRMC,075915.000,A,3029.284433,N,11433.425854,E,0.072,161.59,090119,,E,A*09
[15:59:05]$GNGGA,075915.000,3029.284433,N,11433.425854,E,1,18,0.79,71.771,M,0,M,,*6F
[15:59:06]$GNTXT,20190109,075915,3,2,5,1.06,19,0x2FD8FFA,18,18,0x0,0x4,0x0,1,G,0xD320A004,41,45,44,43,37,50,45,49,49,B,0x77B,44,41,41,38,47,48,48,45,40,E,18,44.60
[15:59:06]$GNRMC,075916.000,A,3029.284433,N,11433.425854,E,0.060,171.63,090119,,E,A*01
[15:59:06]$GNGGA,075916.000,3029.284433,N,11433.425854,E,1,18,0.79,71.770,M,0,M,,*6D
[15:59:07]$GNTXT,20190109,075916,3,2,5,1.02,19,0x2FD8FFA,18,18,0x0,0x4,0x0,1,G,0xD320A004,41,45,44,44,37,50,44,49,49,B,0x77B,44,41,41,39,47,48,48,45,41,E,18,44.68
[16:00:08]$GNRMC,080018.000,A,3029.284435,N,11433.425874,E,0.068,177.53,090119,,E,A*05
[16:00:08]$GNGGA,080018.000,3029.284435,N,11433.425874,E,1,18,0.80,71.685,M,0,M,,*69
[16:00:09]$GNTXT,20190109,080018,3,2,5,0.99,19,0x2FD8FFA,18,18,0x0,0x4,0x0,1,G,0xD320A004,41,45,44,43,36,50,44,48,48,B,0x77B,44,41,41,37,46,48,47,45,40,E,18,44.19
[16:00:09]$GNRMC,080019.000,A,3029.284435,N,11433.425875,E,0.044,174.59,090119,,E,A*02
[16:00:09]$GNGGA,080019.000,3029.284435,N,11433.425875,E,1,18,0.80,71.681,M,0,M,,*6D
[16:00:10]$GNTXT,20190109,080019,3,2,5,1.04,19,0x2FD8FFA,18,18,0x0,0x4,0x0,1,G,0xD320A004,41,45,44,43,35,50,44,48,48,B,0x77B,44,41,41,38,47,48,48,45,40,E,18,44.38
[16:00:10]$GNRMC,080020.000,A,3029.284435,N,11433.425876,E,0.047,178.60,090119,,E,A*0E
[16:00:10]$GNGGA,080020.000,3029.284435,N,11433.425876,E,1,18,0.80,71.677,M,0,M,,*6D
[16:00:11]$GNTXT,20190109,080020,3,2,5,1.10,19,0x2FD8FFA,18,18,0x0,0x4,0x0,1,G,0xD320A004,40,44,43,43,34,49,43,48,48,B,0x77B,44,41,41,38,47,48,48,45,40,E,18,44.13
[16:00:11]$GNRMC,080021.000,A,3029.284435,N,11433.425876,E,0.055,177.44,090119,,E,A*05
[16:00:11]$GNGGA,080021.000,3029.284435,N,11433.425876,E,1,18,0.80,71.673,M,0,M,,*68
[16:00:11]$GNTXT,20190109,080021,3,2,5,1.10,19,0x2FD8FFA,18,18,0x0,0x4,0x0,1,G,0xD320A004,41,45,44,42,34,49,43,48,48,B,0x77B,44,41,41,38,47,48,48,45,40,E,18,44.23
[16:00:12]$GNRMC,080022.000,A,3029.284435,N,11433.425877,E,0.053,180.18,090119,,E,A*00
[16:00:12]$GNGGA,080022.000,3029.284435,N,11433.425877,E,1,18,0.80,71.668,M,0,M,,*60
[16:00:12]$GNTXT,20190109,080022,3,2,5,1.03,19,0x2FD8FFA,18,18,0x0,0x4,0x0,1,G,0xD320A004,40,44,43,43,35,49,43,48,48,B,0x77B,44,42,41,38,47,48,48,46,40,E,18,44.19
[16:00:13]$GNRMC,080023.000,A,3029.284435,N,11433.425878,E,0.064,181.33,090119,,E,A*02
[16:00:13]$GNGGA,080023.000,3029.284435,N,11433.425878,E,1,18,0.80,71.663,M,0,M,,*65
[16:00:14]$GNTXT,20190109,080023,3,2,5,1.08,19,0x2FD8FFA,18,18,0x0,0x4,0x0,1,G,0xD320A004,41,45,43,43,34,49,44,48,48,B,0x77B,45,42,41,38,47,48,48,46,40,E,18,44.32
[16:00:14]$GNRMC,080024.000,A,3029.284435,N,11433.425879,E,0.056,181.94,090119,,E,A*08
[16:00:14]$GNGGA,080024.000,3029.284435,N,11433.425879,E,1,18,0.80,71.659,M,0,M,,*6A
[16:00:14]$GNTXT,20190109,080024,3,2,5,1.08,19,0x2FD8FFA,18,18,0x0,0x4,0x0,1,G,0xD320A004,42,45,44,44,36,50,45,49,49,B,0x77B,44,41,41,38,47,48,48,45,40,E,18,44.71
[16:00:15]$GNRMC,080025.000,A,3029.284436,N,11433.425880,E,0.061,192.74,090119,,E,A*04
[16:00:15]$GNGGA,080025.000,3029.284436,N,11433.425880,E,1,18,0.80,71.653,M,0,M,,*64
[16:00:16]$GNTXT,20190109,080025,3,2,5,1.08,19,0x2FD8FFA,18,18,0x0,0x4,0x0,1,G,0xD320A004,41,45,44,43,35,50,44,48,48,B,0x77B,44,42,41,38,47,48,48,46,40,E,18,44.66
[16:00:16]$GNRMC,080026.000,A,3029.284436,N,11433.425881,E,0.046,190.40,090119,,E,A*06
[16:00:16]$GNGGA,080026.000,3029.284436,N,11433.425881,E,1,18,0.80,71.648,M,0,M,,*6C
[16:00:17]$GNTXT,20190109,080026,3,2,5,1.08,19,0x2FD8FFA,18,18,0x0,0x4,0x0,1,G,0xD320A004,40,44,43,43,35,49,43,48,48,B,0x77B,45,42,41,38,47,48,48,45,40,E,18,44.23
[16:00:17]$GNRMC,080027.000,A,3029.284436,N,11433.425882,E,0.039,181.37,090119,,E,A*0C
[16:00:17]$GNGGA,080027.000,3029.284436,N,11433.425882,E,1,18,0.80,71.645,M,0,M,,*63
[16:00:18]$GNTXT,20190109,080027,3,2,5,1.00,19,0x2FD8FFA,18,18,0x0,0x4,0x0,1,G,0xD320A004,41,44,43,43,36,49,44,48,48,B,0x77B,44,41,41,38,47,48,48,45,40,E,18,44.23
[16:01:19]$GNRMC,080129.000,A,3029.284442,N,11433.425909,E,0.099,196.70,090119,,E,A*0D
[16:01:19]$GNGGA,080129.000,3029.284442,N,11433.425909,E,1,18,0.80,71.455,M,0,M,,*6E
[16:01:20]$GNTXT,20190109,080129,3,2,5,0.78,19,0x2FD8FFA,18,18,0x0,0x4,0x0,1,G,0xD320A004,41,45,44,43,37,50,44,49,48,B,0x77B,44,42,41,38,47,48,48,45,40,E,18,44.52
[16:01:20]$GNRMC,080130.000,A,3029.284441,N,11433.425908,E,0.094,190.33,090119,,E,A*0B
[16:01:20]$GNGGA,080130.000,3029.284441,N,11433.425908,E,1,18,0.80,71.456,M,0,M,,*67
[16:01:21]$GNTXT,20190109,080130,3,2,5,0.78,19,0x2FD8FFA,18,18,0x0,0x4,0x0,1,G,0xD320A004,41,45,44,43,36,50,44,49,49,B,0x77B,44,42,41,38,47,48,48,45,40,E,18,44.60
[16:01:21]$GNRMC,080131.000,A,3029.284441,N,11433.425908,E,0.074,189.01,090119,,E,A*0D
[16:01:21]$GNGGA,080131.000,3029.284441,N,11433.425908,E,1,18,0.80,71.453,M,0,M,,*63
[16:01:22]$GNTXT,20190109,080131,3,2,5,0.79,19,0x2FD8FFA,18,18,0x0,0x4,0x0,1,G,0xD320A004,41,45,44,43,36,50,44,49,49,B,0x77B,44,41,41,37,47,48,48,45,39,E,18,44.51
[16:01:22]$GNRMC,080132.000,A,3029.284441,N,11433.425908,E,0.060,200.27,090119,,E,A*0D
[16:01:22]$GNGGA,080132.000,3029.284441,N,11433.425908,E,1,18,0.80,71.453,M,0,M,,*60
[16:01:22]$GNTXT,20190109,080132,3,2,5,0.76,19,0x2FD8FFA,18,18,0x0,0x4,0x0,1,G,0xD320A004,41,45,44,43,36,50,44,48,48,B,0x77B,44,42,41,38,47,48,48,45,40,E,18,44.48
[16:01:23]$GNRMC,080133.000,A,3029.284441,N,11433.425908,E,0.055,196.36,090119,,E,A*06
[16:01:23]$GNGGA,080133.000,3029.284441,N,11433.425908,E,1,18,0.80,71.450,M,0,M,,*62
[16:01:24]$GNTXT,20190109,080133,3,2,5,0.81,19,0x2FD8FFA,18,18,0x0,0x4,0x0,1,G,0xD320A004,41,45,44,43,35,50,43,48,48,B,0x77B,45,42,41,38,47,48,48,45,39,E,18,44.48
[16:01:24]$GNRMC,080134.000,A,3029.284441,N,11433.425909,E,0.039,187.16,090119,,E,A*08
[16:01:24]$GNGGA,080134.000,3029.284441,N,11433.425909,E,1,18,0.80,71.446,M,0,M,,*63
[16:01:25]$GNTXT,20190109,080134,3,2,5,0.82,19,0x2FD8FFA,18,18,0x0,0x4,0x0,1,G,0xD320A004,41,45,44,43,35,49,43,48,48,B,0x77B,44,41,40,36,47,48,48,45,39,E,18,43.99
[16:01:25]$GNRMC,080135.000,A,3029.284441,N,11433.425909,E,0.039,190.08,090119,,E,A*00
[16:01:25]$GNGGA,080135.000,3029.284441,N,11433.425909,E,1,18,0.80,71.440,M,0,M,,*64
[16:01:25]$GNTXT,20190109,080135,3,2,5,0.88,19,0x2FD8FFA,18,18,0x0,0x4,0x0,1,G,0xD320A004,40,44,43,42,35,49,42,48,47,B,0x77B,44,42,41,38,47,48,48,45,39,E,18,43.97
[16:01:26]$GNRMC,080136.000,A,3029.284442,N,11433.425910,E,0.029,181.76,090119,,E,A*00
[16:01:26]$GNGGA,080136.000,3029.284442,N,11433.425910,E,1,18,0.80,71.435,M,0,M,,*6E
[16:01:27]$GNTXT,20190109,080136,3,2,5,0.89,19,0x2FD8FFA,18,18,0x0,0x4,0x0,1,G,0xD320A004,40,44,43,42,34,49,42,48,47,B,0x77B,44,41,40,37,47,48,48,45,38,E,18,43.68
[16:01:27]$GNRMC,080137.000,A,3029.284442,N,11433.425910,E,0.044,174.53,090119,,E,A*07
[16:01:27]$GNGGA,080137.000,3029.284442,N,11433.425910,E,1,18,0.80,71.431,M,0,M,,*6B
[16:01:28]$GNTXT,20190109,080137,3,2,5,0.87,19,0x2FD8FFA,18,18,0x0,0x4,0x0,1,G,0xD320A004,41,45,44,43,36,50,44,49,49,B,0x77B,44,41,40,38,47,48,48,45,39,E,18,44.40
[16:01:28]$GNRMC,080138.000,A,3029.284443,N,11433.425911,E,0.039,179.25,090119,,E,A*0E
[16:01:28]$GNGGA,080138.000,3029.284443,N,11433.425911,E,1,18,0.80,71.426,M,0,M,,*62
[16:01:28]$GNTXT,20190109,080138,3,2,5,0.88,19,0x2FD8FFA,18,18,0x0,0x4,0x0,1,G,0xD320A004,42,46,45,43,36,50,44,49,49,B,0x77B,45,42,41,37,47,48,48,45,39,E,18,44.66
[16:02:30]$GNRMC,080240.000,A,3029.284436,N,11433.425902,E,0.042,172.89,090119,,E,A*03
[16:02:30]$GNGGA,080240.000,3029.284436,N,11433.425902,E,1,18,0.80,71.340,M,0,M,,*69
[16:02:31]$GNTXT,20190109,080240,3,2,5,0.61,19,0x2FD8FFA,18,18,0x0,0x4,0x0,1,G,0xD320A004,41,45,45,42,36,50,44,48,48,B,0x77B,44,41,40,37,47,48,48,45,39,E,18,44.30
[16:02:31]$GNRMC,080241.000,A,3029.284436,N,11433.425902,E,0.040,166.43,090119,,E,A*03
[16:02:31]$GNGGA,080241.000,3029.284436,N,11433.425902,E,1,18,0.80,71.340,M,0,M,,*68
[16:02:31]$GNTXT,20190109,080241,3,2,5,0.63,19,0x2FD8FFA,18,18,0x0,0x4,0x0,1,G,0xD320A004,41,45,44,42,36,50,44,48,48,B,0x77B,45,42,41,38,47,48,48,46,38,E,18,44.40
[16:02:32]$GNRMC,080242.000,A,3029.284436,N,11433.425902,E,0.040,153.79,090119,,E,A*0F
[16:02:32]$GNGGA,080242.000,3029.284436,N,11433.425902,E,1,18,0.80,71.340,M,0,M,,*6B
[16:02:32]$GNTXT,20190109,080242,3,2,5,0.60,19,0x2FD8FFA,18,18,0x0,0x4,0x0,1,G,0xD320A004,41,45,44,42,36,49,44,48,48,B,0x77B,45,42,42,38,48,49,48,46,39,E,18,44.61
[16:02:33]$GNRMC,080243.000,A,3029.284436,N,11433.425901,E,0.024,191.48,090119,,E,A*03
[16:02:33]$GNGGA,080243.000,3029.284436,N,11433.425901,E,1,18,0.80,71.340,M,0,M,,*69
[16:02:34]$GNTXT,20190109,080243,3,2,5,0.67,19,0x2FD8FFA,18,18,0x0,0x4,0x0,1,G,0xD320A004,41,44,43,42,35,49,44,48,47,B,0x77B,45,42,40,38,47,48,48,46,38,E,18,44.04
[16:02:34]$GNRMC,080244.000,A,3029.284437,N,11433.425901,E,0.013,192.72,090119,,E,A*0B
[16:02:34]$GNGGA,080244.000,3029.284437,N,11433.425901,E,1,18,0.80,71.340,M,0,M,,*6F
[16:02:35]$GNTXT,20190109,080244,3,2,5,0.65,19,0x2FD8FFA,18,18,0x0,0x4,0x0,1,G,0xD320A004,41,44,43,42,35,49,44,47,47,B,0x77B,45,41,41,38,47,48,48,46,39,E,18,43.95
[16:02:35]$GNRMC,080245.000,A,3029.284437,N,11433.425901,E,0.026,182.75,090119,,E,A*0A
[16:02:35]$GNGGA,080245.000,3029.284437,N,11433.425901,E,1,18,0.80,71.340,M,0,M,,*6E
[16:02:35]$GNTXT,20190109,080245,3,2,5,0.64,19,0x2FD8FFA,18,18,0x0,0x4,0x0,1,G,0xD320A004,41,44,43,41,35,49,43,47,47,B,0x77B,44,41,41,37,47,48,48,45,38,E,18,43.77
[16:02:36]$GNRMC,080246.000,A,3029.284437,N,11433.425901,E,0.034,174.33,090119,,E,A*01
[16:02:36]$GNGGA,080246.000,3029.284437,N,11433.425901,E,1,18,0.80,71.340,M,0,M,,*6D
[16:02:37]$GNTXT,20190109,080246,3,2,5,0.62,19,0x2FD8FFA,18,18,0x0,0x4,0x0,1,G,0xD320A004,41,44,43,41,34,49,43,48,47,B,0x77B,45,42,41,38,47,48,48,46,39,E,18,44.01
[16:02:37]$GNRMC,080247.000,A,3029.284438,N,11433.425901,E,0.039,199.47,090119,,E,A*02
[16:02:37]$GNGGA,080247.000,3029.284438,N,11433.425901,E,1,18,0.80,71.338,M,0,M,,*6C
[16:02:38]$GNTXT,20190109,080247,3,2,5,0.62,19,0x2FD8FFA,18,18,0x0,0x4,0x0,1,G,0xD320A004,41,45,43,41,35,49,43,48,48,B,0x77B,44,41,41,38,47,48,48,45,38,E,18,43.94
[16:02:38]$GNRMC,080248.000,A,3029.284438,N,11433.425900,E,0.030,220.99,090119,,E,A*07
[16:02:38]$GNGGA,080248.000,3029.284438,N,11433.425900,E,1,18,0.80,71.337,M,0,M,,*6D
[16:02:38]$GNTXT,20190109,080248,3,2,5,0.60,19,0x2FD8FFA,18,18,0x0,0x4,0x0,1,G,0xD320A004,41,44,43,41,35,49,43,48,47,B,0x77B,44,41,41,37,47,48,48,45,38,E,18,43.78
[16:02:39]$GNRMC,080249.000,A,3029.284438,N,11433.425900,E,0.030,210.95,090119,,E,A*09
[16:02:39]$GNGGA,080249.000,3029.284438,N,11433.425900,E,1,18,0.80,71.336,M,0,M,,*6D
[16:02:40]$GNTXT,20190109,080249,3,2,5,0.64,19,0x2FD8FFA,18,18,0x0,0x4,0x0,1,G,0xD320A004,41,44,43,41,34,49,43,48,48,B,0x77B,44,41,40,36,47,48,48,45,38,E,18,43.73
[16:03:41]$GNRMC,080351.000,A,3029.284436,N,11433.425897,E,0.022,174.56,090119,,E,A*0D
[16:03:41]$GNGGA,080351.000,3029.284436,N,11433.425897,E,1,18,0.80,71.400,M,0,M,,*66
[16:03:41]$GNTXT,20190109,080351,3,2,5,0.66,19,0x2FD8FFA,18,18,0x0,0x4,0x0,1,G,0xD320A004,41,44,43,41,34,49,44,47,47,B,0x77B,44,42,40,37,47,48,48,45,38,E,18,43.79
[16:03:42]$GNRMC,080352.000,A,3029.284436,N,11433.425897,E,0.027,170.12,090119,,E,A*0F
[16:03:42]$GNGGA,080352.000,3029.284436,N,11433.425897,E,1,18,0.80,71.400,M,0,M,,*65
[16:03:42]$GNTXT,20190109,080352,3,2,5,0.62,19,0x2FD8FFA,18,18,0x0,0x4,0x0,1,G,0xD320A004,42,45,44,42,34,50,44,48,48,B,0x77B,44,41,40,37,47,48,48,45,37,E,18,44.01
[16:03:43]$GNRMC,080353.000,A,3029.284436,N,11433.425897,E,0.056,171.77,090119,,E,A*0A
[16:03:43]$GNGGA,080353.000,3029.284436,N,11433.425897,E,1,18,0.80,71.399,M,0,M,,*63
[16:03:44]$GNTXT,20190109,080353,3,2,5,0.60,19,0x2FD8FFA,18,18,0x0,0x4,0x0,1,G,0xD320A004,43,46,45,43,36,50,45,49,48,B,0x77B,45,42,41,38,47,48,48,45,38,E,18,44.68
[16:03:44]$GNRMC,080354.000,A,3029.284436,N,11433.425897,E,0.047,182.15,090119,,E,A*05
[16:03:44]$GNGGA,080354.000,3029.284436,N,11433.425897,E,1,18,0.80,71.398,M,0,M,,*65
[16:03:45]$GNTXT,20190109,080354,3,2,5,0.65,19,0x2FD8FFA,18,18,0x0,0x4,0x0,1,G,0xD320A004,42,46,44,42,35,50,45,49,48,B,0x77B,45,42,41,37,47,48,48,46,38,E,18,44.57
[16:03:45]$GNRMC,080355.000,A,3029.284437,N,11433.425897,E,0.023,186.31,090119,,E,A*05
[16:03:45]$GNGGA,080355.000,3029.284437,N,11433.425897,E,1,18,0.80,71.397,M,0,M,,*6A
[16:03:45]$GNTXT,20190109,080355,3,2,5,0.67,19,0x2FD8FFA,18,18,0x0,0x4,0x0,1,G,0xD320A004,43,46,45,42,36,50,45,49,49,B,0x77B,45,42,41,37,47,48,48,46,38,E,18,44.78
[16:03:46]$GNRMC,080356.000,A,3029.284437,N,11433.425897,E,0.011,264.75,090119,,E,A*08
[16:03:46]$GNGGA,080356.000,3029.284437,N,11433.425897,E,1,18,0.80,71.396,M,0,M,,*68
[16:03:47]$GNTXT,20190109,080356,3,2,5,0.63,19,0x2FD8FFA,18,18,0x0,0x4,0x0,1,G,0xD320A004,42,44,44,42,35,49,45,48,48,B,0x77B,45,42,41,38,47,48,48,46,39,E,18,44.48
[16:03:47]$GNRMC,080357.000,A,3029.284438,N,11433.425898,E,0.021,206.44,090119,,E,A*0C
[16:03:47]$GNGGA,080357.000,3029.284438,N,11433.425898,E,1,18,0.80,71.395,M,0,M,,*6A
[16:03:47]$GNTXT,20190109,080357,3,2,5,0.74,19,0x2FD8FFA,18,18,0x0,0x4,0x0,1,G,0xD320A004,41,44,43,41,34,49,44,47,47,B,0x77B,45,41,40,38,47,48,48,46,38,E,18,43.90
[16:03:49]$GNRMC,080358.000,A,3029.284438,N,11433.425898,E,0.028,180.69,090119,,E,A*08
[16:03:49]$GNGGA,080358.000,3029.284438,N,11433.425898,E,1,18,0.80,71.395,M,0,M,,*65
[16:03:49]$GNTXT,20190109,080358,3,2,5,0.74,19,0x2FD8FFA,18,18,0x0,0x4,0x0,1,G,0xD320A004,41,45,44,42,35,49,44,48,47,B,0x77B,44,41,40,36,47,48,48,45,38,E,18,43.95
[16:03:49]$GNRMC,080359.000,A,3029.284438,N,11433.425897,E,0.050,160.34,090119,,E,A*0F
[16:03:49]$GNGGA,080359.000,3029.284438,N,11433.425897,E,1,18,0.80,71.395,M,0,M,,*6B
[16:03:50]$GNTXT,20190109,080359,3,2,5,0.74,19,0x2FD8FFA,18,18,0x0,0x4,0x0,1,G,0xD320A004,42,44,44,42,35,49,44,48,48,B,0x77B,44,41,40,36,46,47,47,45,39,E,18,43.90
[16:03:50]$GNRMC,080400.000,A,3029.284438,N,11433.425897,E,0.057,163.38,090119,,E,A*0C
[16:03:50]$GNGGA,080400.000,3029.284438,N,11433.425897,E,1,18,0.80,71.396,M,0,M,,*63
[16:03:51]$GNTXT,20190109,080400,3,2,5,0.78,19,0x2FD8FFA,18,18,0x0,0x4,0x0,1,G,0xD320A004,42,45,44,42,36,50,44,48,48,B,0x77B,44,40,40,36,46,47,47,45,38,E,18,43.93
[16:04:52]$GNRMC,080502.000,A,3029.284456,N,11433.425889,E,0.039,179.87,090119,,E,A*0F
[16:04:52]$GNGGA,080502.000,3029.284456,N,11433.425889,E,1,18,0.80,71.417,M,0,M,,*69
[16:04:52]$GNTXT,20190109,080502,3,2,5,0.96,19,0x2FD8FFA,18,18,0x0,0x4,0x0,1,G,0xD320A004,44,47,45,44,37,51,45,50,49,B,0x77B,44,42,40,38,47,48,48,45,39,E,18,44.92
[16:04:53]$GNRMC,080503.000,A,3029.284456,N,11433.425889,E,0.054,184.20,090119,,E,A*0A
[16:04:53]$GNGGA,080503.000,3029.284456,N,11433.425889,E,1,18,0.81,71.418,M,0,M,,*66
[16:04:54]$GNTXT,20190109,080503,3,2,5,0.84,19,0x2FD8FFA,18,18,0x0,0x4,0x0,1,G,0xD320A004,43,45,44,43,35,50,43,48,48,B,0x77B,44,41,40,37,47,48,48,45,39,E,18,44.29
[16:04:54]$GNRMC,080504.000,A,3029.284456,N,11433.425889,E,0.041,187.67,090119,,E,A*09
[16:04:54]$GNGGA,080504.000,3029.284456,N,11433.425889,E,1,18,0.81,71.420,M,0,M,,*6A
[16:04:54]$GNTXT,20190109,080504,3,2,5,0.74,19,0x2FD8FFA,18,18,0x0,0x4,0x0,1,G,0xD320A004,42,45,44,43,36,50,44,48,48,B,0x77B,44,41,40,37,47,48,47,45,38,E,18,44.27
[16:04:55]$GNRMC,080505.000,A,3029.284456,N,11433.425889,E,0.024,196.04,090119,,E,A*0E
[16:04:55]$GNGGA,080505.000,3029.284456,N,11433.425889,E,1,18,0.81,71.422,M,0,M,,*69
[16:04:55]$GNTXT,20190109,080505,3,2,5,0.76,19,0x2FD8FFA,18,18,0x0,0x4,0x0,1,G,0xD320A004,42,44,44,42,35,49,43,48,47,B,0x77B,44,41,40,36,46,47,47,45,38,E,18,43.66
[16:04:56]$GNRMC,080506.000,A,3029.284456,N,11433.425889,E,0.041,189.84,090119,,E,A*08
[16:04:56]$GNGGA,080506.000,3029.284456,N,11433.425889,E,1,18,0.81,71.425,M,0,M,,*6D
[16:04:57]$GNTXT,20190109,080506,3,2,5,0.75,19,0x2FD8FFA,18,18,0x0,0x4,0x0,1,G,0xD320A004,42,45,45,43,35,50,44,48,48,B,0x77B,44,41,39,37,46,47,47,45,37,E,18,44.03
[16:04:57]$GNRMC,080507.000,A,3029.284456,N,11433.425889,E,0.040,181.27,090119,,E,A*09
[16:04:57]$GNGGA,080507.000,3029.284456,N,11433.425889,E,1,18,0.81,71.426,M,0,M,,*6F
[16:04:57]$GNTXT,20190109,080507,3,2,5,0.68,19,0x2FD8FFA,18,18,0x0,0x4,0x0,1,G,0xD320A004,42,45,45,42,36,50,44,48,48,B,0x77B,44,41,40,37,46,47,47,45,38,E,18,44.12
[16:04:58]$GNRMC,080508.000,A,3029.284456,N,11433.425889,E,0.043,179.69,090119,,E,A*08
[16:04:58]$GNGGA,080508.000,3029.284456,N,11433.425889,E,1,18,0.81,71.426,M,0,M,,*60
[16:04:58]$GNTXT,20190109,080508,3,2,5,0.65,19,0x2FD8FFA,18,18,0x0,0x4,0x0,1,G,0xD320A004,42,45,44,42,35,49,44,48,48,B,0x77B,45,41,41,36,47,48,48,45,38,E,18,44.10
[16:04:59]$GNRMC,080509.000,A,3029.284457,N,11433.425890,E,0.031,198.76,090119,,E,A*04
[16:04:59]$GNGGA,080509.000,3029.284457,N,11433.425890,E,1,18,0.81,71.427,M,0,M,,*69
[16:05:00]$GNTXT,20190109,080509,3,2,5,0.67,19,0x2FD8FFA,18,18,0x0,0x4,0x0,1,G,0xD320A004,43,45,45,43,36,50,44,49,48,B,0x77B,45,42,41,38,47,48,48,46,38,E,18,44.65
[16:05:00]$GNRMC,080510.000,A,3029.284457,N,11433.425890,E,0.038,213.15,090119,,E,A*00
[16:05:00]$GNGGA,080510.000,3029.284457,N,11433.425890,E,1,18,0.81,71.428,M,0,M,,*6E
[16:05:00]$GNTXT,20190109,080510,3,2,5,0.64,19,0x2FD8FFA,18,18,0x0,0x4,0x0,1,G,0xD320A004,44,46,46,44,36,51,45,50,49,B,0x77B,45,42,41,38,47,48,48,45,38,E,18,45.01
[16:05:01]$GNRMC,080511.000,A,3029.284458,N,11433.425890,E,0.030,174.32,090119,,E,A*01
[16:05:01]$GNGGA,080511.000,3029.284458,N,11433.425890,E,1,18,0.81,71.427,M,0,M,,*6F
[16:05:01]$GNTXT,20190109,080511,3,2,5,0.63,19,0x2FD8FFA,18,18,0x0,0x4,0x0,1,G,0xD320A004,44,47,46,44,37,51,45,50,49,B,0x77B,45,42,41,38,47,48,48,45,38,E,18,45.09
[16:06:03]$GNRMC,080613.000,A,3029.284468,N,11433.425903,E,0.122,186.19,090119,,E,A*0E
[16:06:03]$GNGGA,080613.000,3029.284468,N,11433.425903,E,1,18,0.81,71.348,M,0,M,,*68
[16:06:04]$GNTXT,20190109,080613,3,2,5,0.77,19,0x2FD8FFA,18,18,0x0,0x4,0x0,1,G,0xD320A004,43,45,45,42,35,50,44,49,48,B,0x77B,45,42,41,39,47,48,48,46,39,E,18,44.71
[16:06:04]$GNRMC,080614.000,A,3029.284468,N,11433.425903,E,0.069,183.08,090119,,E,A*02
[16:06:04]$GNGGA,080614.000,3029.284468,N,11433.425903,E,1,18,0.81,71.345,M,0,M,,*62
[16:06:04]$GNTXT,20190109,080614,3,2,5,0.79,19,0x2FD8FFA,18,18,0x0,0x4,0x0,1,G,0xD320A004,43,46,45,42,35,50,44,49,48,B,0x77B,45,42,41,38,47,48,48,46,39,E,18,44.64
[16:06:05]$GNRMC,080615.000,A,3029.284468,N,11433.425903,E,0.068,179.80,090119,,E,A*07
[16:06:05]$GNGGA,080615.000,3029.284468,N,11433.425903,E,1,18,0.81,71.343,M,0,M,,*65
[16:06:05]$GNTXT,20190109,080615,3,2,5,0.80,19,0x2FD8FFA,18,18,0x0,0x4,0x0,1,G,0xD320A004,42,45,44,42,34,50,43,48,48,B,0x77B,44,41,41,38,47,48,48,45,39,E,18,44.21
[16:06:06]$GNRMC,080616.000,A,3029.284469,N,11433.425903,E,0.059,180.86,090119,,E,A*07
[16:06:06]$GNGGA,080616.000,3029.284469,N,11433.425903,E,1,18,0.81,71.340,M,0,M,,*64
[16:06:06]$GNTXT,20190109,080616,3,2,5,0.79,19,0x2FD8FFA,18,18,0x0,0x4,0x0,1,G,0xD320A004,43,45,45,42,34,50,44,48,48,B,0x77B,44,41,40,38,47,48,48,45,39,E,18,44.41
[16:06:07]$GNRMC,080617.000,A,3029.284469,N,11433.425903,E,0.054,184.54,090119,,E,A*00
[16:06:07]$GNGGA,080617.000,3029.284469,N,11433.425903,E,1,18,0.81,71.338,M,0,M,,*6A
[16:06:08]$GNTXT,20190109,080617,3,2,5,0.76,19,0x2FD8FFA,18,18,0x0,0x4,0x0,1,G,0xD320A004,42,45,45,43,35,50,43,48,48,B,0x77B,45,42,41,39,47,48,48,46,39,E,18,44.70
[16:06:08]$GNRMC,080618.000,A,3029.284469,N,11433.425903,E,0.057,181.08,090119,,E,A*00
[16:06:08]$GNGGA,080618.000,3029.284469,N,11433.425903,E,1,18,0.81,71.338,M,0,M,,*65
[16:06:08]$GNTXT,20190109,080618,3,2,5,0.76,19,0x2FD8FFA,18,18,0x0,0x4,0x0,1,G,0xD320A004,43,46,46,43,35,51,44,49,49,B,0x77B,45,42,41,38,47,48,48,46,39,E,18,44.92
[16:06:09]$GNRMC,080619.000,A,3029.284470,N,11433.425903,E,0.047,174.74,090119,,E,A*09
[16:06:09]$GNGGA,080619.000,3029.284470,N,11433.425903,E,1,18,0.81,71.335,M,0,M,,*61
[16:06:09]$GNTXT,20190109,080619,3,2,5,0.83,19,0x2FD8FFA,18,18,0x0,0x4,0x0,1,G,0xD320A004,43,46,46,43,35,50,44,49,48,B,0x77B,45,42,41,38,47,48,48,46,40,E,18,44.91
[16:06:10]$GNRMC,080620.000,A,3029.284470,N,11433.425903,E,0.039,157.52,090119,,E,A*0F
[16:06:10]$GNGGA,080620.000,3029.284470,N,11433.425903,E,1,18,0.81,71.333,M,0,M,,*6D
[16:06:10]$GNTXT,20190109,080620,3,2,5,0.90,19,0x2FD8FFA,18,18,0x0,0x4,0x0,1,G,0xD320A004,44,46,46,44,35,51,44,49,49,B,0x77B,44,41,40,38,47,48,48,45,39,E,18,44.86
[16:06:11]$GNRMC,080621.000,A,3029.284470,N,11433.425903,E,0.036,163.27,090119,,E,A*04
[16:06:11]$GNGGA,080621.000,3029.284470,N,11433.425903,E,1,18,0.81,71.330,M,0,M,,*6F
[16:06:11]$GNTXT,20190109,080621,3,2,5,0.87,19,0x2FD8FFA,18,18,0x0,0x4,0x0,1,G,0xD320A004,43,46,44,43,35,50,44,49,48,B,0x77B,44,41,40,37,46,47,47,45,39,E,18,44.28
[16:06:12]$GNRMC,080622.000,A,3029.284471,N,11433.425903,E,0.014,195.36,090119,,E,A*0F
[16:06:12]$GNGGA,080622.000,3029.284471,N,11433.425903,E,1,18,0.81,71.328,M,0,M,,*64
[16:06:12]$GNTXT,20190109,080622,3,2,5,0.79,19,0x2FD8FFA,18,18,0x0,0x4,0x0,1,G,0xD320A004,43,45,44,42,35,50,44,49,48,B,0x77B,44,41,40,37,46,47,47,45,38,E,18,44.14
[16:07:14]$GNRMC,080724.000,A,3029.284469,N,11433.425895,E,0.038,188.37,090119,,E,A*0C
[16:07:14]$GNGGA,080724.000,3029.284469,N,11433.425895,E,1,17,0.85,71.291,M,0,M,,*6C
[16:07:14]$GNTXT,20190109,080724,3,2,5,0.83,18,0x2FD8FEA,17,17,0x0,0x4,0x0,1,G,0xD220A004,43,46,45,43,50,45,49,48,B,0x77B,44,42,40,38,47,48,48,45,40,E,17,45.15
[16:07:15]$GNRMC,080725.000,A,3029.284470,N,11433.425895,E,0.042,179.35,090119,,E,A*04
[16:07:15]$GNGGA,080725.000,3029.284470,N,11433.425895,E,1,17,0.85,71.289,M,0,M,,*6C
[16:07:15]$GNTXT,20190109,080725,3,2,5,0.84,18,0x2FD8FEA,17,17,0x0,0x4,0x0,1,G,0xD220A004,43,46,45,43,51,45,49,48,B,0x77B,45,42,41,39,47,48,48,46,41,E,17,45.66
[16:07:16]$GNRMC,080726.000,A,3029.284470,N,11433.425895,E,0.027,206.00,090119,,E,A*09
[16:07:16]$GNGGA,080726.000,3029.284470,N,11433.425895,E,1,17,0.85,71.287,M,0,M,,*61
[16:07:16]$GNTXT,20190109,080726,3,2,5,0.87,18,0x2FD8FEA,17,17,0x0,0x4,0x0,1,G,0xD220A004,43,46,45,43,51,46,49,48,B,0x77B,45,42,41,39,47,48,48,46,40,E,17,45.65
[16:07:17]$GNRMC,080727.000,A,3029.284470,N,11433.425896,E,0.023,228.71,090119,,E,A*05
[16:07:17]$GNGGA,080727.000,3029.284470,N,11433.425896,E,1,17,0.85,71.284,M,0,M,,*60
[16:07:17]$GNTXT,20190109,080727,3,2,5,0.78,18,0x2FD8FEA,17,17,0x0,0x4,0x0,1,G,0xD220A004,43,46,44,43,50,44,49,48,B,0x77B,44,41,41,38,47,48,48,45,39,E,17,45.07
[16:07:18]$GNRMC,080728.000,A,3029.284470,N,11433.425896,E,0.028,199.51,090119,,E,A*0A
[16:07:18]$GNGGA,080728.000,3029.284470,N,11433.425896,E,1,17,0.85,71.282,M,0,M,,*69
[16:07:18]$GNTXT,20190109,080728,3,2,5,0.82,18,0x2FD8FEA,17,17,0x0,0x4,0x0,1,G,0xD220A004,43,46,45,43,50,45,49,48,B,0x77B,44,41,40,38,46,48,47,45,39,E,17,45.04
[16:07:19]$GNRMC,080729.000,A,3029.284470,N,11433.425896,E,0.019,204.12,090119,,E,A*09
[16:07:19]$GNGGA,080729.000,3029.284470,N,11433.425896,E,1,17,0.85,71.283,M,0,M,,*69
[16:07:19]$GNTXT,20190109,080729,3,2,5,0.70,18,0x2FD8FEA,17,17,0x0,0x4,0x0,1,G,0xD220A004,43,46,45,43,50,45,49,48,B,0x77B,45,42,41,39,47,48,48,46,41,E,17,45.67
[16:07:20]$GNRMC,080730.000,A,3029.284470,N,11433.425895,E,0.014,193.60,090119,,E,A*07
[16:07:20]$GNGGA,080730.000,3029.284470,N,11433.425895,E,1,17,0.85,71.284,M,0,M,,*65
[16:07:20]$GNTXT,20190109,080730,3,2,5,0.75,18,0x2FD8FEA,17,17,0x0,0x4,0x0,1,G,0xD220A004,43,46,46,44,51,46,49,49,B,0x77B,45,42,41,38,47,48,48,46,40,E,17,45.70
[16:07:21]$GNRMC,080731.000,A,3029.284470,N,11433.425895,E,0.005,138.29,090119,,E,A*0A
[16:07:21]$GNGGA,080731.000,3029.284470,N,11433.425895,E,1,17,0.85,71.286,M,0,M,,*66
[16:07:21]$GNTXT,20190109,080731,3,2,5,0.63,18,0x2FD8FEA,17,17,0x0,0x4,0x0,1,G,0xD220A004,43,45,45,43,50,45,49,48,B,0x77B,45,42,41,39,48,49,49,46,40,E,17,45.57
[16:07:22]$GNRMC,080732.000,A,3029.284470,N,11433.425895,E,0.022,171.94,090119,,E,A*07
[16:07:22]$GNGGA,080732.000,3029.284470,N,11433.425895,E,1,17,0.85,71.287,M,0,M,,*64
[16:07:22]$GNTXT,20190109,080732,3,2,5,0.65,18,0x2FD8FEA,17,17,0x0,0x4,0x0,1,G,0xD220A004,43,46,45,43,50,46,49,48,B,0x77B,45,42,41,39,47,48,48,46,40,E,17,45.57
[16:07:23]$GNRMC,080733.000,A,3029.284470,N,11433.425895,E,0.008,184.75,090119,,E,A*0B
[16:07:23]$GNGGA,080733.000,3029.284470,N,11433.425895,E,1,17,0.85,71.288,M,0,M,,*6A
[16:07:23]$GNTXT,20190109,080733,3,2,5,0.69,18,0x2FD8FEA,17,17,0x0,0x4,0x0,1,G,0xD220A004,42,45,45,42,50,45,48,48,B,0x77B,45,42,41,38,47,48,48,46,40,E,17,45.31
[16:08:25]$GNRMC,080835.000,A,3029.284463,N,11433.425865,E,0.042,179.70,090119,,E,A*06
[16:08:25]$GNGGA,080835.000,3029.284463,N,11433.425865,E,1,17,0.85,71.408,M,0,M,,*60
[16:08:25]$GNTXT,20190109,080835,3,2,5,0.78,18,0x2FD8FEA,17,17,0x0,0x4,0x0,1,G,0xD220A004,43,46,45,43,50,45,49,48,B,0x77B,45,42,41,39,47,48,48,46,41,E,17,45.57
[16:08:26]$GNRMC,080836.000,A,3029.284463,N,11433.425865,E,0.045,192.61,090119,,E,A*07
[16:08:26]$GNGGA,080836.000,3029.284463,N,11433.425865,E,1,17,0.85,71.410,M,0,M,,*6A
[16:08:26]$GNTXT,20190109,080836,3,2,5,0.80,18,0x2FD8FEA,17,17,0x0,0x4,0x0,1,G,0xD220A004,43,46,44,43,50,45,48,48,B,0x77B,44,41,41,39,47,48,48,45,40,E,17,45.23
[16:08:27]$GNRMC,080837.000,A,3029.284463,N,11433.425864,E,0.027,184.89,090119,,E,A*02
[16:08:27]$GNGGA,080837.000,3029.284463,N,11433.425864,E,1,17,0.85,71.412,M,0,M,,*68
[16:08:27]$GNTXT,20190109,080837,3,2,5,0.74,18,0x2FD8FEA,17,17,0x0,0x4,0x0,1,G,0xD220A004,42,45,44,41,49,44,48,47,B,0x77B,44,40,40,38,46,47,47,45,39,E,17,44.39
[16:08:29]$GNRMC,080838.000,A,3029.284462,N,11433.425864,E,0.036,186.10,090119,,E,A*0E
[16:08:29]$GNGGA,080838.000,3029.284462,N,11433.425864,E,1,17,0.85,71.415,M,0,M,,*61
[16:08:29]$GNTXT,20190109,080838,3,2,5,0.76,18,0x2FD8FEA,17,17,0x0,0x4,0x0,1,G,0xD220A004,43,45,45,42,50,45,48,47,B,0x77B,44,41,40,38,46,48,47,45,40,E,17,44.79
[16:08:29]$GNRMC,080839.000,A,3029.284462,N,11433.425863,E,0.056,179.20,090119,,E,A*0D
[16:08:29]$GNGGA,080839.000,3029.284462,N,11433.425863,E,1,17,0.85,71.418,M,0,M,,*6A
[16:08:29]$GNTXT,20190109,080839,3,2,5,0.69,18,0x2FD8FEA,17,17,0x0,0x4,0x0,1,G,0xD220A004,43,45,44,41,49,45,48,47,B,0x77B,44,42,41,39,47,48,48,45,40,E,17,44.92
[16:08:30]$GNRMC,080840.000,A,3029.284462,N,11433.425863,E,0.032,185.61,090119,,E,A*07
[16:08:30]$GNGGA,080840.000,3029.284462,N,11433.425863,E,1,17,0.85,71.421,M,0,M,,*6E
[16:08:30]$GNTXT,20190109,080840,3,2,5,0.69,18,0x2FD8FEA,17,17,0x0,0x4,0x0,1,G,0xD220A004,42,45,44,41,49,44,48,47,B,0x77B,43,41,39,38,46,47,47,45,39,E,17,44.36
[16:08:31]$GNRMC,080841.000,A,3029.284462,N,11433.425863,E,0.042,168.50,090119,,E,A*00
[16:08:31]$GNGGA,080841.000,3029.284462,N,11433.425863,E,1,17,0.85,71.424,M,0,M,,*6A
[16:08:31]$GNTXT,20190109,080841,3,2,5,0.70,18,0x2FD8FEA,17,17,0x0,0x4,0x0,1,G,0xD220A004,42,45,44,41,49,44,47,47,B,0x77B,43,40,39,37,46,47,47,44,39,E,17,44.22
[16:08:32]$GNRMC,080842.000,A,3029.284461,N,11433.425863,E,0.046,166.21,090119,,E,A*0C
[16:08:32]$GNGGA,080842.000,3029.284461,N,11433.425863,E,1,17,0.85,71.428,M,0,M,,*66
